[
  {
    "name": "AddGentia",
    "address": "Place Longemale 2, 1262 Eysins",
    "url": "https://yaqi.ch/entrepreneur/addgentia/",
    "lat": 0.0,
    "lng": 0.0
  },
  {
    "name": "Alignement ",
    "address": "1350 Orbe",
    "url": "https://yaqi.ch/entrepreneur/alignement/",
    "lat": 0.0,
    "lng": 0.0
  },
  {
    "name": "Alp Tosuncuoglu",
    "address": "Ch. de la Longivue 1, 1726 Farvagny-le-Grand",
    "url": "https://yaqi.ch/entrepreneur/alp-tosuncuoglu/",
    "lat": 0.0,
    "lng": 0.0
  },
  {
    "name": "Amandine Réflexologie",
    "address": "Espace Anahata, Rue Louis de Savoie 29, 1110 Morges",
    "url": "https://yaqi.ch/entrepreneur/amandine-reflexologie/",
    "lat": 0.0,
    "lng": 0.0
  },
  {
    "name": "Antoine Glardon",
    "address": "Av. Benjamin-Constant 1, 1001 Lausanne",
    "url": "https://yaqi.ch/entrepreneur/antoine-glardon-conseiller-en-prevoyance-et-finances/",
    "lat": 0.0,
    "lng": 0.0
  },
  {
    "name": "Antoine Glardon",
    "address": "1020 Renens",
    "url": "https://yaqi.ch/entrepreneur/antoine-glardon-conseiller-en-prevoyance-et-finances/",
    "lat": 0.0,
    "lng": 0.0
  },
  {
    "name": "AS Immobilier Sàrl ",
    "address": "Place du Petit-Mont 2, 1052 Le Mont-sur-Lausanne",
    "url": "https://yaqi.ch/entrepreneur/as-immobilier-sarl/",
    "lat": 0.0,
    "lng": 0.0
  },
  {
    "name": "Atelier Kinkin",
    "address": "Avenue de Grandson 48, 1400 Yverdon-Les-Bains",
    "url": "https://yaqi.ch/entrepreneur/atelier-kinkin/",
    "lat": 0.0,
    "lng": 0.0
  },
  {
    "name": "Audio Visual Factory ",
    "address": "Chemin du Vuasset 6, 1028 Préverenges",
    "url": "https://yaqi.ch/entrepreneur/audio-visual-factory-sarl/",
    "lat": 0.0,
    "lng": 0.0
  },
  {
    "name": "B-Investigations",
    "address": "1200 Genève",
    "url": "https://yaqi.ch/entrepreneur/b-investigations/",
    "lat": 0.0,
    "lng": 0.0
  },
  {
    "name": "Carrosserie Ryffel SA",
    "address": "Route Aloys-Fauquez 107b, 1018 Lausanne",
    "url": "https://yaqi.ch/entrepreneur/carrosserie-ryffel-sa/",
    "lat": 0.0,
    "lng": 0.0
  },
  {
    "name": "Christophe Lamberti",
    "address": "Chemin de la Jorattez 10, 1052 Le Mont-sur-Lausanne",
    "url": "https://yaqi.ch/entrepreneur/christophe-lamberti-therapeute-energetique/",
    "lat": 0.0,
    "lng": 0.0
  },
  {
    "name": "Coaching by Coco ",
    "address": "1260 Nyon",
    "url": "https://yaqi.ch/entrepreneur/coaching-by-coco/",
    "lat": 0.0,
    "lng": 0.0
  },
  {
    "name": "Crossfit 1163",
    "address": "ZI en Courta Rama 2, 1163 Etoy",
    "url": "https://yaqi.ch/entrepreneur/crossfit-1163-x-hyrox-performance-communaute/",
    "lat": 0.0,
    "lng": 0.0
  },
  {
    "name": "Cubicim",
    "address": "Route du Village 10D, 1070 Puidoux",
    "url": "https://yaqi.ch/entrepreneur/cubicim/",
    "lat": 0.0,
    "lng": 0.0
  },
  {
    "name": "Destination Zen",
    "address": "Place de la Gare 1, 1260 Nyon ",
    "url": "https://yaqi.ch/entrepreneur/destination-zen/",
    "lat": 0.0,
    "lng": 0.0
  },
  {
    "name": "Destination Zen",
    "address": "chemin des Jeunes 35, 1227 Carouge ",
    "url": "https://yaqi.ch/entrepreneur/destination-zen/",
    "lat": 0.0,
    "lng": 0.0
  },
  {
    "name": "Digital Planet sàrl",
    "address": "Galerie Saint-François 1, 1003 Lausanne",
    "url": "https://yaqi.ch/entrepreneur/digital-planet-sarl/",
    "lat": 0.0,
    "lng": 0.0
  },
  {
    "name": "Dupuis Production ",
    "address": "1400 Yverdon-les-Bains",
    "url": "https://yaqi.ch/entrepreneur/dupuis-production/",
    "lat": 0.0,
    "lng": 0.0
  },
  {
    "name": "Fiduciaire Paux",
    "address": "Rue de la Gare 15, 1110 Morges",
    "url": "https://yaqi.ch/entrepreneur/fiduciaire-paux/",
    "lat": 0.0,
    "lng": 0.0
  },
  {
    "name": "Fitprint ",
    "address": "Chemin du Passon 2, 1350 Orbe",
    "url": "https://yaqi.ch/entrepreneur/fitprint/",
    "lat": 0.0,
    "lng": 0.0
  },
  {
    "name": "Fleurisa",
    "address": "Ch. du Moulin 1, 1053 Cugy",
    "url": "https://yaqi.ch/entrepreneur/fleurisa/",
    "lat": 0.0,
    "lng": 0.0
  },
  {
    "name": "IP Music",
    "address": "Chemin du Vuasset 6, 1028 Préverenges",
    "url": "https://yaqi.ch/entrepreneur/ip-music/",
    "lat": 0.0,
    "lng": 0.0
  },
  {
    "name": "IP Music Slow",
    "address": "Chemin du Vuasset 6, 1028 Préverenges",
    "url": "https://yaqi.ch/entrepreneur/ip-music-slow/",
    "lat": 0.0,
    "lng": 0.0
  },
  {
    "name": "IP Worldcom SA",
    "address": "Chemin du Vuasset 6, 1028 Préverenges",
    "url": "https://yaqi.ch/entrepreneur/ip-worldcom-sa/",
    "lat": 0.0,
    "lng": 0.0
  },
  {
    "name": "Laurent Berthet",
    "address": "Ch. des Colombaires 32, 1096 Cully",
    "url": "https://yaqi.ch/entrepreneur/laurent-berthet-oenologue-et-vigneron/",
    "lat": 0.0,
    "lng": 0.0
  },
  {
    "name": "L'éveil de Soi",
    "address": "Rue du Centre 25, 1025 Saint-Suplice",
    "url": "https://yaqi.ch/entrepreneur/leveil-de-soi/",
    "lat": 0.0,
    "lng": 0.0
  },
  {
    "name": "Loris Valloton",
    "address": "Rue de l'Industrie 49, 1030 Bussigny",
    "url": "https://yaqi.ch/entrepreneur/loris-vallotton/",
    "lat": 0.0,
    "lng": 0.0
  },
  {
    "name": "Mon Cœur de Lunière",
    "address": "Route Cantonale 6, 1135 Denens",
    "url": "https://yaqi.ch/entrepreneur/mon-coeur-de-lumiere/",
    "lat": 0.0,
    "lng": 0.0
  },
  {
    "name": "Nader Wolf Avocat",
    "address": "Av. Juste-Olivier 9, 1006 Lausanne",
    "url": "https://yaqi.ch/entrepreneur/nader-wolf/",
    "lat": 0.0,
    "lng": 0.0
  },
  {
    "name": "Nader Wolf Avocat",
    "address": "Rue des Communaux 4, 1800 Vevey",
    "url": "https://yaqi.ch/entrepreneur/nader-wolf/",
    "lat": 0.0,
    "lng": 0.0
  },
  {
    "name": "Natacha B. Massages thérapeutiques ",
    "address": "Av. du Mont-Blanc 33, 1196 Gland",
    "url": "https://yaqi.ch/entrepreneur/natacha-b-massages-therapeutiques/",
    "lat": 0.0,
    "lng": 0.0
  },
  {
    "name": "NutriWellbeing",
    "address": "Route de la Corniche 5, 1066 Epallinges",
    "url": "https://yaqi.ch/entrepreneur/nutriwellbeing/",
    "lat": 0.0,
    "lng": 0.0
  },
  {
    "name": "NutriWellbeing",
    "address": "Rue Centrale 9, 1110 Morges",
    "url": "https://yaqi.ch/entrepreneur/nutriwellbeing/",
    "lat": 0.0,
    "lng": 0.0
  },
  {
    "name": "RB Créations Sàrl",
    "address": "Route du Tronchet 4, 1870 Monthey",
    "url": "https://yaqi.ch/entrepreneur/rb-creations-sarl/",
    "lat": 0.0,
    "lng": 0.0
  },
  {
    "name": "Sophrovie de Natale Annunziata",
    "address": "Route du Simplon 18, 1852 Roche",
    "url": "https://yaqi.ch/entrepreneur/sophrovie-de-natale-annunziata/",
    "lat": 0.0,
    "lng": 0.0
  },
  {
    "name": "Speak to the world",
    "address": "2000 Neuchâtel",
    "url": "https://yaqi.ch/entrepreneur/speak-to-the-world/",
    "lat": 0.0,
    "lng": 0.0
  },
  {
    "name": "Taco's Bar",
    "address": "Rue de Genève 17, 1003 Lausanne",
    "url": "https://yaqi.ch/entrepreneur/tacos-bar/",
    "lat": 0.0,
    "lng": 0.0
  },
  {
    "name": "Townerful",
    "address": "1000 Lausanne",
    "url": "https://yaqi.ch/entrepreneur/townerful/",
    "lat": 0.0,
    "lng": 0.0
  }
]